SGPRMC,153314.485,V,3954.928,N,08202.497,W,32.1,1.81,150720,,E*48
$GPGGA,153315.485,3954.928,N,08202.497,W,0,00,,,M,,M,,*52
$GPGLL,3954.928,N,08202.497,W,153316.485,V*31
$GPRMC,153317.485,V,3954.926,N,08202.496,W,87.5,1.71,150720,,E*41
$GPGGA,153318.485,3954.926,N,08202.496,W,0,00,,,M,,M,,*50
$GPGLL,3954.926,N,08202.496,W,153319.485,V*31
$GPRMC,153320.485,V,3954.925,N,08202.495,W,9.4,1.73,150720,,E*70
$GPGGA,153321.485,3954.925,N,08202.495,W,0,00,,,M,,M,,*5A
$GPGLL,3954.925,N,08202.495,W,153322.485,V*39
$GPRMC,153323.485,V,3954.923,N,08202.494,W,67.5,1.64,150720,,E*4B
$GPGGA,153324.485,3954.923,N,08202.494,W,0,00,,,M,,M,,*58
$GPGLL,3954.923,N,08202.494,W,153325.485,V*39
$GPRMC,153326.485,V,3954.922,N,08202.493,W,85.7,1.63,150720,,E*41
$GPGGA,153327.485,3954.922,N,08202.493,W,0,00,,,M,,M,,*5D
$GPGLL,3954.922,N,08202.493,W,153328.485,V*32
$GPRMC,153329.485,V,3954.920,N,08202.492,W,66.6,1.66,150720,,E*44
$GPGGA,153330.485,3954.920,N,08202.492,W,0,00,,,M,,M,,*58
$GPGLL,3954.920,N,08202.492,W,153331.485,V*39
$GPRMC,153332.485,V,3954.919,N,08202.491,W,59.7,1.61,150720,,E*4D
$GPGGA,153333.485,3954.919,N,08202.491,W,0,00,,,M,,M,,*52
$GPGLL,3954.919,N,08202.491,W,153334.485,V*35
$GPRMC,153335.485,V,3954.917,N,08202.490,W,40.3,1.64,150720,,E*4C
$GPGGA,153336.485,3954.917,N,08202.490,W,0,00,,,M,,M,,*58
$GPGLL,3954.917,N,08202.490,W,153337.485,V*39
$GPRMC,153338.485,V,3954.916,N,08202.489,W,64.3,1.66,150720,,E*4C
$GPGGA,153339.485,3954.916,N,08202.489,W,0,00,,,M,,M,,*5E
$GPGLL,3954.916,N,08202.489,W,153340.485,V*30
$GPRMC,153341.485,V,3954.914,N,08202.489,W,4.4,1.67,150720,,E*70
$GPGGA,153342.485,3954.914,N,08202.489,W,0,00,,,M,,M,,*50
$GPGLL,3954.914,N,08202.489,W,153343.485,V*31
$GPRMC,153344.485,V,3954.912,N,08202.488,W,39.8,1.70,150720,,E*46
$GPGGA,153345.485,3954.912,N,08202.488,W,0,00,,,M,,M,,*50
$GPGLL,3954.912,N,08202.488,W,153346.485,V*33
$GPRMC,153347.485,V,3954.911,N,08202.487,W,96.4,1.62,150720,,E*43
$GPGGA,153348.485,3954.911,N,08202.487,W,0,00,,,M,,M,,*51
$GPGLL,3954.911,N,08202.487,W,153349.485,V*30
$GPRMC,153350.485,V,3954.909,N,08202.487,W,27.2,1.98,150720,,E*45
$GPGGA,153351.485,3954.909,N,08202.487,W,0,00,,,M,,M,,*50
$GPGLL,3954.909,N,08202.487,W,153352.485,V*33
$GPRMC,153353.485,V,3954.907,N,08202.487,W,69.7,2.01,150720,,E*44
$GPGGA,153354.485,3954.907,N,08202.487,W,0,00,,,M,,M,,*5B
$GPGLL,3954.907,N,08202.487,W,153355.485,V*3A
$GPRMC,153356.485,V,3954.906,N,08202.486,W,49.0,1.91,150720,,E*4E
$GPGGA,153357.485,3954.906,N,08202.486,W,0,00,,,M,,M,,*58
$GPGLL,3954.906,N,08202.486,W,153358.485,V*37
$GPRMC,153359.485,V,3954.904,N,08202.486,W,67.2,1.99,150720,,E*45
$GPGGA,153400.485,3954.904,N,08202.486,W,0,00,,,M,,M,,*5F
$GPGLL,3954.904,N,08202.486,W,153401.485,V*3E
$GPRMC,153402.485,V,3954.902,N,08202.487,W,86.2,2.06,150720,,E*41
$GPGGA,153403.485,3954.902,N,08202.487,W,0,00,,,M,,M,,*5B
$GPGLL,3954.902,N,08202.487,W,153404.485,V*3C
$GPRMC,153405.485,V,3954.900,N,08202.487,W,96.7,2.16,150720,,E*41
$GPGGA,153406.485,3954.900,N,08202.487,W,0,00,,,M,,M,,*5C
$GPGLL,3954.900,N,08202.487,W,153407.485,V*3D
$GPRMC,153408.485,V,3954.898,N,08202.488,W,48.2,2.18,150720,,E*4B
$GPGGA,153409.485,3954.898,N,08202.488,W,0,00,,,M,,M,,*5C
$GPGLL,3954.898,N,08202.488,W,153410.485,V*34
$GPRMC,153411.485,V,3954.897,N,08202.488,W,56.6,2.14,150720,,E*4B
$GPGGA,153412.485,3954.897,N,08202.488,W,0,00,,,M,,M,,*59
$GPGLL,3954.897,N,08202.488,W,153413.485,V*38
$GPRMC,153414.485,V,3954.895,N,08202.488,W,54.7,2.18,150720,,E*43
$GPGGA,153415.485,3954.895,N,08202.488,W,0,00,,,M,,M,,*5C
$GPGLL,3954.895,N,08202.488,W,153416.485,V*3F
$GPRMC,153417.485,V,3954.893,N,08202.489,W,58.0,2.08,150720,,E*4D
$GPGGA,153418.485,3954.893,N,08202.489,W,0,00,,,M,,M,,*56
$GPGLL,3954.893,N,08202.489,W,153419.485,V*37
$GPRMC,153420.485,V,3954.891,N,08202.489,W,32.9,2.13,150720,,E*44
$GPGGA,153421.485,3954.891,N,08202.489,W,0,00,,,M,,M,,*5E
$GPGLL,3954.891,N,08202.489,W,153422.485,V*3D
$GPRMC,153423.485,V,3954.890,N,08202.489,W,12.2,2.06,150720,,E*4B
$GPGGA,153424.485,3954.890,N,08202.489,W,0,00,,,M,,M,,*5A
$GPGLL,3954.890,N,08202.489,W,153425.485,V*3B
$GPRMC,153426.485,V,3954.888,N,08202.489,W,11.6,2.01,150720,,E*47
$GPGGA,153427.485,3954.888,N,08202.489,W,0,00,,,M,,M,,*50
$GPGLL,3954.888,N,08202.489,W,153428.485,V*3F
$GPRMC,153429.485,V,3954.886,N,08202.489,W,79.0,1.94,150720,,E*41
$GPGGA,153430.485,3954.886,N,08202.489,W,0,00,,,M,,M,,*58
$GPGLL,3954.886,N,08202.489,W,153431.485,V*39
$GPRMC,153432.485,V,3954.884,N,08202.489,W,36.3,1.98,150720,,E*4D
$GPGGA,153433.485,3954.884,N,08202.489,W,0,00,,,M,,M,,*59
$GPGLL,3954.884,N,08202.489,W,153434.485,V*3E
$GPRMC,153435.485,V,3954.883,N,08202.489,W,0.1,1.91,150720,,E*73
$GPGGA,153436.485,3954.883,N,08202.489,W,0,00,,,M,,M,,*5B
$GPGLL,3954.883,N,08202.489,W,153437.485,V*3A
$GPRMC,153438.485,V,3954.881,N,08202.489,W,91.6,1.98,150720,,E*4A
$GPGGA,153439.485,3954.881,N,08202.489,W,0,00,,,M,,M,,*56
$GPGLL,3954.881,N,08202.489,W,153440.485,V*38
$GPRMC,153441.485,V,3954.879,N,08202.489,W,29.1,2.09,150720,,E*4C
$GPGGA,153442.485,3954.879,N,08202.489,W,0,00,,,M,,M,,*5D
$GPGLL,3954.879,N,08202.489,W,153443.485,V*3C
$GPRMC,153444.485,V,3954.877,N,08202.489,W,15.3,2.02,150720,,E*41
$GPGGA,153445.485,3954.877,N,08202.489,W,0,00,,,M,,M,,*54
$GPGLL,3954.877,N,08202.489,W,153446.485,V*37
$GPRMC,153447.485,V,3954.875,N,08202.489,W,53.6,1.96,150720,,E*49
$GPGGA,153448.485,3954.875,N,08202.489,W,0,00,,,M,,M,,*5B
$GPGLL,3954.875,N,08202.489,W,153449.485,V*3A
$GPRMC,153450.485,V,3954.874,N,08202.489,W,19.5,2.04,150720,,E*4B
$GPGGA,153451.485,3954.874,N,08202.489,W,0,00,,,M,,M,,*52
$GPGLL,3954.874,N,08202.489,W,153452.485,V*31
$GPRMC,153453.485,V,3954.872,N,08202.489,W,65.4,2.15,150720,,E*44
$GPGGA,153454.485,3954.872,N,08202.489,W,0,00,,,M,,M,,*51
$GPGLL,3954.872,N,08202.489,W,153455.485,V*30
$GPRMC,153456.485,V,3954.870,N,08202.490,W,22.7,2.20,150720,,E*4D
$GPGGA,153457.485,3954.870,N,08202.490,W,0,00,,,M,,M,,*58
$GPGLL,3954.870,N,08202.490,W,153458.485,V*37
$GPRMC,153459.485,V,3954.868,N,08202.491,W,97.5,2.22,150720,,E*44
$GPGGA,153500.485,3954.868,N,08202.491,W,0,00,,,M,,M,,*53
$GPGLL,3954.868,N,08202.491,W,153501.485,V*32
$GPRMC,153502.485,V,3954.867,N,08202.491,W,56.4,2.31,150720,,E*4A
$GPGGA,153503.485,3954.867,N,08202.491,W,0,00,,,M,,M,,*5F
$GPGLL,3954.867,N,08202.491,W,153504.485,V*38
$GPRMC,153505.485,V,3954.865,N,08202.492,W,44.0,2.40,150720,,E*4D
$GPGGA,153506.485,3954.865,N,08202.492,W,0,00,,,M,,M,,*5B
$GPGLL,3954.865,N,08202.492,W,153507.485,V*3A
$GPRMC,153508.485,V,3954.864,N,08202.494,W,95.2,2.51,150720,,E*49
$GPGGA,153509.485,3954.864,N,08202.494,W,0,00,,,M,,M,,*53
$GPGLL,3954.864,N,08202.494,W,153510.485,V*3B
$GPRMC,153511.485,V,3954.863,N,08202.495,W,17.5,2.52,150720,,E*49
$GPGGA,153512.485,3954.863,N,08202.495,W,0,00,,,M,,M,,*5F
$GPGLL,3954.863,N,08202.495,W,153513.485,V*3E
$GPRMC,153514.485,V,3954.861,N,08202.496,W,19.4,2.43,150720,,E*42
$GPGGA,153515.485,3954.861,N,08202.496,W,0,00,,,M,,M,,*59
$GPGLL,3954.861,N,08202.496,W,153516.485,V*3A
$GPRMC,153517.485,V,3954.860,N,08202.497,W,88.5,2.36,150720,,E*4A
$GPGGA,153518.485,3954.860,N,08202.497,W,0,00,,,M,,M,,*54
$GPGLL,3954.860,N,08202.497,W,153519.485,V*35
$GPRMC,153520.485,V,3954.859,N,08202.498,W,31.5,2.45,150720,,E*4D
$GPGGA,153521.485,3954.859,N,08202.498,W,0,00,,,M,,M,,*5B
$GPGLL,3954.859,N,08202.498,W,153522.485,V*38
$GPRMC,153523.485,V,3954.857,N,08202.499,W,67.5,2.36,150720,,E*46
$GPGGA,153524.485,3954.857,N,08202.499,W,0,00,,,M,,M,,*51
$GPGLL,3954.857,N,08202.499,W,153525.485,V*30
$GPRMC,153526.485,V,3954.856,N,08202.501,W,26.2,2.47,150720,,E*46
$GPGGA,153527.485,3954.856,N,08202.501,W,0,00,,,M,,M,,*53
$GPGLL,3954.856,N,08202.501,W,153528.485,V*3C
$GPRMC,153529.485,V,3954.854,N,08202.502,W,60.0,2.43,150720,,E*4C
$GPGGA,153530.485,3954.854,N,08202.502,W,0,00,,,M,,M,,*54
$GPGLL,3954.854,N,08202.502,W,153531.485,V*35
$GPRMC,153532.485,V,3954.853,N,08202.503,W,59.0,2.38,150720,,E*46
$GPGGA,153533.485,3954.853,N,08202.503,W,0,00,,,M,,M,,*51
$GPGLL,3954.853,N,08202.503,W,153534.485,V*36
$GPRMC,153535.485,V,3954.851,N,08202.504,W,100.0,2.43,150720,,E*75
$GPGGA,153536.485,3954.851,N,08202.504,W,0,00,,,M,,M,,*51
$GPGLL,3954.851,N,08202.504,W,153537.485,V*30
$GPRMC,153538.485,V,3954.850,N,08202.505,W,20.4,2.48,150720,,E*44
$GPGGA,153539.485,3954.850,N,08202.505,W,0,00,,,M,,M,,*5E
$GPGLL,3954.850,N,08202.505,W,153540.485,V*30
$GPRMC,153541.485,V,3954.849,N,08202.506,W,27.7,2.39,150720,,E*43
$GPGGA,153542.485,3954.849,N,08202.506,W,0,00,,,M,,M,,*59
$GPGLL,3954.849,N,08202.506,W,153543.485,V*38
$GPRMC,153544.485,V,3954.847,N,08202.507,W,39.3,2.44,150720,,E*48
$GPGGA,153545.485,3954.847,N,08202.507,W,0,00,,,M,,M,,*51
$GPGLL,3954.847,N,08202.507,W,153546.485,V*32
$GPRMC,153547.485,V,3954.845,N,08202.507,W,51.3,1.98,150720,,E*45
$GPGGA,153548.485,3954.845,N,08202.507,W,0,00,,,M,,M,,*5E
$GPGLL,3954.845,N,08202.507,W,153549.485,V*3F
$GPRMC,153550.485,V,3954.844,N,08202.507,W,47.7,1.89,150720,,E*41
$GPGGA,153551.485,3954.844,N,08202.507,W,0,00,,,M,,M,,*57
$GPGLL,3954.844,N,08202.507,W,153552.485,V*34
$GPRMC,153553.485,V,3954.842,N,08202.506,W,21.1,1.84,150720,,E*4E
$GPGGA,153554.485,3954.842,N,08202.506,W,0,00,,,M,,M,,*55
$GPGLL,3954.842,N,08202.506,W,153555.485,V*34
$GPRMC,153556.485,V,3954.840,N,08202.506,W,32.2,1.86,150720,,E*4A
$GPGGA,153557.485,3954.840,N,08202.506,W,0,00,,,M,,M,,*54
$GPGLL,3954.840,N,08202.506,W,153558.485,V*3B
$GPRMC,153559.485,V,3954.838,N,08202.506,W,96.8,1.91,150720,,E*48
$GPGGA,153600.485,3954.838,N,08202.506,W,0,00,,,M,,M,,*5A
$GPGLL,3954.838,N,08202.506,W,153601.485,V*3B
$GPRMC,153602.485,V,3954.837,N,08202.506,W,68.3,1.99,150720,,E*48
$GPGGA,153603.485,3954.837,N,08202.506,W,0,00,,,M,,M,,*56
$GPGLL,3954.837,N,08202.506,W,153604.485,V*31
$GPRMC,153605.485,V,3954.835,N,08202.506,W,4.4,2.00,150720,,E*73
$GPGGA,153606.485,3954.835,N,08202.506,W,0,00,,,M,,M,,*51
$GPGLL,3954.835,N,08202.506,W,153607.485,V*30
$GPRMC,153608.485,V,3954.833,N,08202.505,W,33.3,1.92,150720,,E*40
$GPGGA,153609.485,3954.833,N,08202.505,W,0,00,,,M,,M,,*5B
$GPGLL,3954.833,N,08202.505,W,153610.485,V*33
$GPRMC,153611.485,V,3954.831,N,08202.506,W,27.0,2.01,150720,,E*46
$GPGGA,153612.485,3954.831,N,08202.506,W,0,00,,,M,,M,,*50
$GPGLL,3954.831,N,08202.506,W,153613.485,V*31
$GPRMC,153614.485,V,3954.829,N,08202.505,W,57.3,1.98,150720,,E*4E
$GPGGA,153615.485,3954.829,N,08202.505,W,0,00,,,M,,M,,*5D
$GPGLL,3954.829,N,08202.505,W,153616.485,V*3E
$GPRMC,153617.485,V,3954.828,N,08202.505,W,68.5,1.95,150720,,E*4B
$GPGGA,153618.485,3954.828,N,08202.505,W,0,00,,,M,,M,,*51
$GPGLL,3954.828,N,08202.505,W,153619.485,V*30
$GPRMC,153620.485,V,3954.826,N,08202.506,W,64.9,2.40,150720,,E*49
$GPGGA,153621.485,3954.826,N,08202.506,W,0,00,,,M,,M,,*56
$GPGLL,3954.826,N,08202.506,W,153622.485,V*35
$GPRMC,153623.485,V,3954.825,N,08202.507,W,95.9,2.38,150720,,E*49
$GPGGA,153624.485,3954.825,N,08202.507,W,0,00,,,M,,M,,*51
$GPGLL,3954.825,N,08202.507,W,153625.485,V*30
$GPRMC,153626.485,V,3954.823,N,08202.508,W,65.5,2.30,150720,,E*4E
$GPGGA,153627.485,3954.823,N,08202.508,W,0,00,,,M,,M,,*5B
$GPGLL,3954.823,N,08202.508,W,153628.485,V*34
$GPRMC,153629.485,V,3954.821,N,08202.509,W,7.7,2.22,150720,,E*77
$GPGGA,153630.485,3954.821,N,08202.509,W,0,00,,,M,,M,,*5E
$GPGLL,3954.821,N,08202.509,W,153631.485,V*3F
$GPRMC,153632.485,V,3954.820,N,08202.509,W,73.0,2.20,150720,,E*4A
$GPGGA,153633.485,3954.820,N,08202.509,W,0,00,,,M,,M,,*5C
$GPGLL,3954.820,N,08202.509,W,153634.485,V*3B
$GPRMC,153635.485,V,3954.818,N,08202.510,W,85.9,2.26,150720,,E*48
$GPGGA,153636.485,3954.818,N,08202.510,W,0,00,,,M,,M,,*5A
$GPGLL,3954.818,N,08202.510,W,153637.485,V*3B
$GPRMC,153638.485,V,3954.816,N,08202.511,W,11.3,2.27,150720,,E*4C
$GPGGA,153639.485,3954.816,N,08202.511,W,0,00,,,M,,M,,*5A
$GPGLL,3954.816,N,08202.511,W,153640.485,V*34
$GPRMC,153641.485,V,3954.815,N,08202.512,W,16.8,2.37,150720,,E*4F
$GPGGA,153642.485,3954.815,N,08202.512,W,0,00,,,M,,M,,*56
$GPGLL,3954.815,N,08202.512,W,153643.485,V*37
$GPRMC,153644.485,V,3954.813,N,08202.513,W,57.3,2.31,150720,,E*45
$GPGGA,153645.485,3954.813,N,08202.513,W,0,00,,,M,,M,,*56
$GPGLL,3954.813,N,08202.513,W,153646.485,V*35
$GPRMC,153647.485,V,3954.812,N,08202.514,W,15.7,2.32,150720,,E*41
$GPGGA,153648.485,3954.812,N,08202.514,W,0,00,,,M,,M,,*5D
$GPGLL,3954.812,N,08202.514,W,153649.485,V*3C
$GPRMC,153650.485,V,3954.810,N,08202.515,W,31.7,2.40,150720,,E*47
$GPGGA,153651.485,3954.810,N,08202.515,W,0,00,,,M,,M,,*56
$GPGLL,3954.810,N,08202.515,W,153652.485,V*35
$GPRMC,153653.485,V,3954.809,N,08202.516,W,43.7,2.47,150720,,E*4D
$GPGGA,153654.485,3954.809,N,08202.516,W,0,00,,,M,,M,,*58
$GPGLL,3954.809,N,08202.516,W,153655.485,V*39
$GPRMC,153656.485,V,3954.808,N,08202.517,W,76.7,2.45,150720,,E*4C
$GPGGA,153657.485,3954.808,N,08202.517,W,0,00,,,M,,M,,*5B
$GPGLL,3954.808,N,08202.517,W,153658.485,V*34
$GPRMC,153659.485,V,3954.806,N,08202.518,W,47.6,2.45,150720,,E*41
$GPGGA,153700.485,3954.806,N,08202.518,W,0,00,,,M,,M,,*59
$GPGLL,3954.806,N,08202.518,W,153701.485,V*38
$GPRMC,153702.485,V,3954.805,N,08202.519,W,70.5,2.50,150720,,E*4F
$GPGGA,153703.485,3954.805,N,08202.519,W,0,00,,,M,,M,,*58
$GPGLL,3954.805,N,08202.519,W,153704.485,V*3F
$GPRMC,153705.485,V,3954.804,N,08202.521,W,86.6,2.45,150720,,E*4C
$GPGGA,153706.485,3954.804,N,08202.521,W,0,00,,,M,,M,,*57
$GPGLL,3954.804,N,08202.521,W,153707.485,V*36
$GPRMC,153708.485,V,3954.802,N,08202.522,W,73.8,2.51,150720,,E*45
$GPGGA,153709.485,3954.802,N,08202.522,W,0,00,,,M,,M,,*5D
$GPGLL,3954.802,N,08202.522,W,153710.485,V*35
$GPRMC,153711.485,V,3954.801,N,08202.523,W,48.8,2.51,150720,,E*47
$GPGGA,153712.485,3954.801,N,08202.523,W,0,00,,,M,,M,,*55
$GPGLL,3954.801,N,08202.523,W,153713.485,V*34
$GPRMC,153714.485,V,3954.800,N,08202.524,W,15.8,2.45,150720,,E*49
$GPGGA,153715.485,3954.800,N,08202.524,W,0,00,,,M,,M,,*54
$GPGLL,3954.800,N,08202.524,W,153716.485,V*37
$GPRMC,153717.485,V,3954.798,N,08202.526,W,84.8,2.51,150720,,E*4B
$GPGGA,153718.485,3954.798,N,08202.526,W,0,00,,,M,,M,,*55
$GPGLL,3954.798,N,08202.526,W,153719.485,V*34
$GPRMC,153720.485,V,3954.797,N,08202.527,W,85.8,2.42,150720,,E*42
$GPGGA,153721.485,3954.797,N,08202.527,W,0,00,,,M,,M,,*51
$GPGLL,3954.797,N,08202.527,W,153722.485,V*32
$GPRMC,153723.485,V,3954.796,N,08202.528,W,8.6,2.50,150720,,E*77
$GPGGA,153724.485,3954.796,N,08202.528,W,0,00,,,M,,M,,*5A
$GPGLL,3954.796,N,08202.528,W,153725.485,V*3B
$GPRMC,153726.485,V,3954.794,N,08202.529,W,12.3,2.50,150720,,E*4F
$GPGGA,153727.485,3954.794,N,08202.529,W,0,00,,,M,,M,,*5A
$GPGLL,3954.794,N,08202.529,W,153728.485,V*35
$GPRMC,153729.485,V,3954.793,N,08202.531,W,44.2,2.50,150720,,E*4C
$GPGGA,153730.485,3954.793,N,08202.531,W,0,00,,,M,,M,,*52
$GPGLL,3954.793,N,08202.531,W,153731.485,V*33
$GPRMC,153732.485,V,3954.792,N,08202.532,W,11.2,2.45,150720,,E*40
$GPGGA,153733.485,3954.792,N,08202.532,W,0,00,,,M,,M,,*53
$GPGLL,3954.792,N,08202.532,W,153734.485,V*34
$GPRMC,153735.485,V,3954.790,N,08202.533,W,45.6,2.39,150720,,E*4A
$GPGGA,153736.485,3954.790,N,08202.533,W,0,00,,,M,,M,,*55
$GPGLL,3954.790,N,08202.533,W,153737.485,V*34
$GPRMC,153738.485,V,3954.789,N,08202.534,W,77.8,2.34,150720,,E*4A
$GPGGA,153739.485,3954.789,N,08202.534,W,0,00,,,M,,M,,*55
$GPGLL,3954.789,N,08202.534,W,153740.485,V*3B
$GPRMC,153741.485,V,3954.787,N,08202.534,W,57.7,2.27,150720,,E*45
$GPGGA,153742.485,3954.787,N,08202.534,W,0,00,,,M,,M,,*57
$GPGLL,3954.787,N,08202.534,W,153743.485,V*36
$GPRMC,153744.485,V,3954.785,N,08202.535,W,83.5,2.16,150720,,E*4A
$GPGGA,153745.485,3954.785,N,08202.535,W,0,00,,,M,,M,,*53
$GPGLL,3954.785,N,08202.535,W,153746.485,V*30
$GPRMC,153747.485,V,3954.784,N,08202.535,W,27.0,2.15,150720,,E*40
$GPGGA,153748.485,3954.784,N,08202.535,W,0,00,,,M,,M,,*5F
$GPGLL,3954.784,N,08202.535,W,153749.485,V*3E
$GPRMC,153750.485,V,3954.782,N,08202.536,W,29.0,2.22,150720,,E*49
$GPGGA,153751.485,3954.782,N,08202.536,W,0,00,,,M,,M,,*52
$GPGLL,3954.782,N,08202.536,W,153752.485,V*31
$GPRMC,153753.485,V,3954.780,N,08202.537,W,16.7,2.24,150720,,E*44
$GPGGA,153754.485,3954.780,N,08202.537,W,0,00,,,M,,M,,*54
$GPGLL,3954.780,N,08202.537,W,153755.485,V*35
$GPRMC,153756.485,V,3954.779,N,08202.537,W,41.8,2.23,150720,,E*4D
$GPGGA,153757.485,3954.779,N,08202.537,W,0,00,,,M,,M,,*51
$GPGLL,3954.779,N,08202.537,W,153758.485,V*3E
$GPRMC,153759.485,V,3954.777,N,08202.538,W,75.7,2.15,150720,,E*4E
$GPGGA,153800.485,3954.777,N,08202.538,W,0,00,,,M,,M,,*5D
$GPGLL,3954.777,N,08202.538,W,153801.485,V*3C
$GPRMC,153802.485,V,3954.775,N,08202.538,W,3.3,2.22,150720,,E*7C
$GPGGA,153803.485,3954.775,N,08202.538,W,0,00,,,M,,M,,*5C
$GPGLL,3954.775,N,08202.538,W,153804.485,V*3B
$GPRMC,153805.485,V,3954.774,N,08202.539,W,93.6,2.32,150720,,E*46
$GPGGA,153806.485,3954.774,N,08202.539,W,0,00,,,M,,M,,*59
$GPGLL,3954.774,N,08202.539,W,153807.485,V*38
$GPRMC,153808.485,V,3954.772,N,08202.540,W,92.0,2.36,150720,,E*40
$GPGGA,153809.485,3954.772,N,08202.540,W,0,00,,,M,,M,,*5E
$GPGLL,3954.772,N,08202.540,W,153810.485,V*36
$GPRMC,153811.485,V,3954.771,N,08202.541,W,87.5,2.38,150720,,E*45
$GPGGA,153812.485,3954.771,N,08202.541,W,0,00,,,M,,M,,*56
$GPGLL,3954.771,N,08202.541,W,153813.485,V*37
